{
  "type": "FeatureCollection",
  "features": [
    {
      "type": "Feature",
      "properties": {
        "name": "Dublin City Council Traffic Cameras - O'Connell Bridge",
        "address": "O'Connell Bridge, Dublin",
        "ownership": "government",
        "url": "http://www.dublincity.ie/dublintraffic/site16Camera6.jpg",
        "marker-size": "small"
      },
      "geometry": {
        "type": "Point",
        "coordinates": [
          -6.258999109268188,
          53.34707848312472
        ]
      }
    },
    {
      "type": "Feature",
      "properties": {
        "name": "South Dublin County Council Traffic Cameras - Ballycullen/St.Colmcilles",
        "address": "Ballycullen Rd, Dublin",
        "ownership": "government",
        "url": "http://traffic.southdublin.ie/TrafficCamImages/Ballycullen_sc/snap.jpg",
        "marker-size": "small"
      },
      "geometry": {
        "type": "Point",
        "coordinates": [
          -6.330855,
          53.276715
        ]
      }
    },
    {
      "type": "Feature",
      "properties": {
        "name": "South Dublin County Council Traffic Cameras - Belgard Rd/Cookstown",
        "address": "Belgard Rd, Dublin",
        "ownership": "government",
        "url": "http://traffic.southdublin.ie/TrafficCamImages/BelgardCook/snap.jpg",
        "marker-size": "small"
      },
      "geometry": {
        "type": "Point",
        "coordinates": [
          -6.37758,
          53.302899
        ]
      }
    },
    {
      "type": "Feature",
      "properties": {
        "name": "Dublin City Council Traffic Cameras - Samuel Beckett Bridge",
        "address": "30 N Wall Quay, Dublin",
        "ownership": "government",
        "url": "http://www.dublincity.ie/dublintraffic/site16Camera136.jpg",
        "marker-size": "small"
      },
      "geometry": {
        "type": "Point",
        "coordinates": [
          -6.241365,
          53.34765
        ]
      }
    },
    {
      "type": "Feature",
      "properties": {
        "name": "Dublin City Council Traffic Cameras - M50 / Coolock Lane / Port Tunnel",
        "address": "Ashtown, Dublin",
        "ownership": "government",
        "url": "http://www.dublincity.ie/dublintraffic/site16Camera95.jpg",
        "marker-size": "small"
      },
      "geometry": {
        "type": "Point",
        "coordinates": [
          -6.239373,
          53.397335
        ]
      }
    },
    {
      "type": "Feature",
      "properties": {
        "name": "Dublin City Council Traffic Cameras - N11 / Clonkeen Rd",
        "address": "N11, Dublin",
        "ownership": "government",
        "url": "http://www.dublincity.ie/dublintraffic/site16Camera106.jpg",
        "marker-size": "small"
      },
      "geometry": {
        "type": "Point",
        "coordinates": [
          -6.15833,
          53.266214
        ]
      }
    },
    {
      "type": "Feature",
      "properties": {
        "name": "Eason's Nassau St",
        "address": "24-25 Nassau St, Dublin 2",
        "ownership": "private",
        "marker-size": "small"
      },
      "geometry": {
        "type": "Point",
        "coordinates": [
          -6.256478,
          53.34252
        ]
      }
    },
    {
      "type": "Feature",
      "properties": {
        "name": "KBC Bank",
        "address": "17 Dame St, Dublin 2",
        "ownership": "private",
        "marker-size": "small"
      },
      "geometry": {
        "type": "Point",
        "coordinates": [
          -6.262035,
          53.344156
        ]
      }
    },
    {
      "type": "Feature",
      "properties": {
        "name": "Ulster Bank",
        "address": "Church Ln, Dublin 2",
        "ownership": "private",
        "marker-size": "small"
      },
      "geometry": {
        "type": "Point",
        "coordinates": [
          -6.260863,
          53.344107
        ]
      }
    },
    {
      "type": "Feature",
      "properties": {
        "name": "Cow's Ln / Lord Edward St",
        "address": "Cow's Ln, Dublin 2",
        "marker-size": "small"
      },
      "geometry": {
        "type": "Point",
        "coordinates": [
          -6.268722,
          53.343889
        ]
      }
    }
  ]
}
